[
    {
        "name": "Prasad V. Potluri Siddhartha Institute Of Technology",
        "latitude": 16.4877,
        "longitude": 80.6941
    },
    {
        "name": "Velagapudi Ramakrishna Siddhartha Engineering College",
        "latitude": 16.4821,
        "longitude": 80.6914
    },
    {
        "name": "K L E F Deemed To Be University",
        "latitude": 16.4419,
        "longitude": 80.6226
    },
    {
        "name": "SRM University AP",
        "latitude": 16.4649,
        "longitude": 80.5083
    },
    {
        "name": "VIT-AP University",
        "latitude": 16.4971,
        "longitude": 80.4992
    },
    {
        "name": "Dhanekula Institute of Engineering & Technology",
        "latitude": 16.4686,
        "longitude": 80.7389
    },
    {
        "name": "Vignan's Foundation for Science, Technology & Research",
        "latitude": 16.2334,
        "longitude": 80.5509
    },
    {
        "name": "Vishnu Institute of Technology",
        "latitude": 16.5660,
        "longitude": 81.5225
    },
    {
        "name": "Gayatri Vidya Parishad College of Engineering",
        "latitude": 17.8205,
        "longitude": 83.3423
    },
    {
        "name": "Anil Neerukonda Institute of Technology and Sciences",
        "latitude": 17.9218,
        "longitude": 83.4255
    },
    {
        "name":  "Vasireddy Venkatadri Institute of Technology",
        "latitude": 16.3442,
        "longitude": 80.5244
    }
   
]
